[
  {
    "id": "1",
    "name": "Pickle By The Sea",
    "address": "Gurney Drive, 10250 George Town, Penang",
    "area": "Gurney",
    "coordinates": { "lat": 5.4370, "lng": 100.3100 },
    "hours": "7:00 AM – 11:00 PM",
    "numberOfCourts": 16,
    "indoor": false,
    "surfaceType": "Acrylic",
    "contact": "+6012-345 6789",
    "description": "Penang's largest pickleball venue with 16 outdoor courts along scenic Gurney Drive. Popular for its seaside atmosphere and night play under floodlights."
  },
  {
    "id": "2",
    "name": "G.O.A.T Pickle Club",
    "address": "Jelutong, 11600 Penang",
    "area": "Jelutong",
    "coordinates": { "lat": 5.3880, "lng": 100.3230 },
    "hours": "8:00 AM – 11:00 PM",
    "numberOfCourts": 12,
    "indoor": false,
    "surfaceType": "Acrylic",
    "contact": "+6012-456 7890",
    "description": "High-energy outdoor club with 12 courts, coaching programmes, and a vibrant community of competitive players."
  },
  {
    "id": "3",
    "name": "Spin & Smash Pickleball Hub",
    "address": "George Town, 10200 Penang",
    "area": "George Town",
    "coordinates": { "lat": 5.4145, "lng": 100.3290 },
    "hours": "7:00 AM – 10:00 PM",
    "numberOfCourts": 10,
    "indoor": false,
    "surfaceType": "Acrylic",
    "contact": "+6012-567 8901",
    "description": "10-court outdoor hub in the heart of George Town, offering walk-in play, leagues, and coaching for all levels."
  },
  {
    "id": "4",
    "name": "Pickle Land",
    "address": "Bayan Baru, 11950 Penang",
    "area": "Bayan Baru",
    "coordinates": { "lat": 5.3310, "lng": 100.2800 },
    "hours": "8:00 AM – 11:00 PM",
    "numberOfCourts": 9,
    "indoor": true,
    "surfaceType": "Sport Court",
    "contact": "+6012-678 9012",
    "description": "Fully indoor 9-court facility in Bayan Baru with air conditioning, pro shop, and equipment rental."
  },
  {
    "id": "5",
    "name": "Heritage Courts",
    "address": "George Town, 10300 Penang",
    "area": "George Town",
    "coordinates": { "lat": 5.4180, "lng": 100.3350 },
    "hours": "7:00 AM – 10:00 PM",
    "numberOfCourts": 8,
    "indoor": true,
    "surfaceType": "Vinyl",
    "contact": "+6012-789 0123",
    "description": "Premium indoor venue near the UNESCO heritage zone with 8 cushioned vinyl courts and full amenities."
  },
  {
    "id": "6",
    "name": "Pickle Lab",
    "address": "Jelutong, 11600 Penang",
    "area": "Jelutong",
    "coordinates": { "lat": 5.3860, "lng": 100.3180 },
    "hours": "9:00 AM – 10:00 PM",
    "numberOfCourts": 6,
    "indoor": true,
    "surfaceType": "Sport Court",
    "contact": "+6012-890 1234",
    "description": "Boutique indoor facility focused on player development with 6 courts, video analysis, and private coaching."
  },
  {
    "id": "7",
    "name": "PickleGen",
    "address": "Bayan Baru, 11950 Penang",
    "area": "Bayan Baru",
    "coordinates": { "lat": 5.3280, "lng": 100.2850 },
    "hours": "8:00 AM – 10:00 PM",
    "numberOfCourts": 7,
    "indoor": true,
    "surfaceType": "Sport Court",
    "contact": "+6012-901 2345",
    "description": "Modern 7-court indoor centre in Bayan Baru catering to families and beginners with structured programmes."
  },
  {
    "id": "8",
    "name": "PickleSquad",
    "address": "Butterworth, 12300 Penang",
    "area": "Butterworth",
    "coordinates": { "lat": 5.3990, "lng": 100.3640 },
    "hours": "7:00 AM – 10:00 PM",
    "numberOfCourts": 8,
    "indoor": false,
    "surfaceType": "Acrylic",
    "contact": "+6012-012 3456",
    "description": "Mainland Penang's go-to venue with 8 outdoor courts, floodlights for evening play, and regular tournaments."
  },
  {
    "id": "9",
    "name": "Penang Pickleball Club",
    "address": "Bukit Mertajam, 14000 Penang",
    "area": "Bukit Mertajam",
    "coordinates": { "lat": 5.3630, "lng": 100.4600 },
    "hours": "8:00 AM – 10:00 PM",
    "numberOfCourts": 6,
    "indoor": true,
    "surfaceType": "Vinyl",
    "contact": "+6012-123 4567",
    "description": "Community-focused indoor club in Bukit Mertajam with 6 courts, social events, and beginner-friendly sessions."
  },
  {
    "id": "10",
    "name": "Picklemotion",
    "address": "Gurney Drive, 10250 George Town, Penang",
    "area": "Gurney",
    "coordinates": { "lat": 5.4350, "lng": 100.3120 },
    "hours": "7:00 AM – 10:00 PM",
    "numberOfCourts": 4,
    "indoor": false,
    "surfaceType": "Concrete",
    "contact": "+6012-234 5678",
    "description": "Compact 4-court outdoor venue on Gurney Drive, great for casual play with scenic ocean views."
  },
  {
    "id": "11",
    "name": "Play! Tennis Malaysia",
    "address": "George Town, 10450 Penang",
    "area": "George Town",
    "coordinates": { "lat": 5.4260, "lng": 100.3160 },
    "hours": "8:00 AM – 10:00 PM",
    "numberOfCourts": 3,
    "indoor": true,
    "surfaceType": "Acrylic",
    "contact": "+6012-345 6780",
    "description": "Multi-sport facility in George Town offering 3 indoor pickleball courts alongside tennis and badminton."
  },
  {
    "id": "12",
    "name": "PickleSky Penang",
    "address": "Bayan Lepas, 11900 Penang",
    "area": "Bayan Lepas",
    "coordinates": { "lat": 5.3200, "lng": 100.2780 },
    "hours": "9:00 AM – 11:00 PM",
    "numberOfCourts": 6,
    "indoor": true,
    "surfaceType": "Sport Court",
    "contact": "+6012-456 7891",
    "description": "Indoor 6-court venue in Bayan Lepas with rooftop courts, LED lighting, and a lounge area for spectators."
  }
]
